fid,FEDUID,FEDENAME,PRUID,Metroarea,Latitude,Longitude,RO
"1","24054",Outremont,"24","1","45.510548196144775","-73.6106657471255","2013"
"2","24055",Papineau,"24","1","45.54653687554498","-73.61840238763861","2013"
"3","24056",Pierrefonds--Dollard,"24","1","45.49432938631271","-73.85391297461578","2013"
"4","24057",Pontiac,"24","0","46.60146648056251","-76.58209045480451","2013"
"5","24058",Portneuf--Jacques-Cartier,"24","0","47.12829827505557","-71.86702204969369","2013"
"6","24059",Québec,"24","1","46.809389524137906","-71.27032526056972","2013"
"7","24060",Repentigny,"24","1","45.8220109248247","-73.43031866270444","2013"
"8","24061",Richmond--Arthabaska,"24","0","45.853591292005206","-71.9407349247358","2013"
"9","24062",Rivière-des-Mille-Îles,"24","1","45.59076650624484","-73.90231266425222","2013"
"10","24037",LaSalle--Émard--Verdun,"24","1","45.446999453471605","-73.5932992493355","2013"
"11","24038",Laurentides--Labelle,"24","0","46.77875621511483","-75.08425647880101","2013"
"12","24039",Laurier--Sainte-Marie,"24","1","45.526114179837776","-73.56644620370463","2013"
"13","24040",Laval--Les Îles,"24","1","45.53920538629556","-73.82027700895192","2013"
"14","24041",Longueuil--Charles-LeMoyne,"24","1","45.48835309330767","-73.4487001756542","2013"
"15","24042",Lévis--Lotbinière,"24","0","46.525375796927335","-71.49540462564752","2013"
"16","24043",Longueuil--Saint-Hubert,"24","1","45.53512545246659","-73.44680564396059","2013"
"17","24044",Louis-Hébert,"24","1","46.78154018889673","-71.36561007837498","2013"
"18","24045",Louis-Saint-Laurent,"24","1","46.84735683957745","-71.40935666212543","2013"
"19","24046",Manicouagan,"24","0","51.54749478291351","-65.76451895617477","2013"
"20","24047",Mégantic--L'Érable,"24","0","45.903928733459104","-71.21521946101211","2013"
"21","24048",Mirabel,"24","1","45.64748155282042","-74.04661181515094","2013"
"22","24049",Montarville,"24","1","45.54416275061741","-73.3275623495668","2013"
"23","24050",Montcalm,"24","0","45.90023992745119","-73.67940777380849","2013"
"24","24051",Montmagny--L'Islet--Kamouraska--Rivière-du-Loup,"24","0","47.25224939177368","-69.8629356500338","2013"
"25","24069",Saint-Léonard--Saint-Michel,"24","1","45.582885511650225","-73.60425719961245","2013"
"26","24070",Saint-Maurice--Champlain,"24","0","47.81683332254946","-73.81404541611606","2013"
"27","24071",Salaberry--Suroît,"24","0","45.159126635568676","-74.0824568444236","2013"
"28","24072",Shefford,"24","0","45.42868825029582","-72.62942938128805","2013"
"29","24073",Sherbrooke,"24","1","45.40627145907674","-71.90202023138905","2013"
"30","24074",Vaudreuil--Soulanges,"24","0","45.411326623818624","-74.15239214963165","2013"
"31","24075",Terrebonne,"24","1","45.733188547537516","-73.68615852815564","2013"
"32","24076",Trois-Rivières,"24","1","46.36010124359579","-72.61647542203418","2013"
"33","24077",Ville-Marie--Le Sud-Ouest--Île-des-Soeurs,"24","1","45.4884512180564","-73.5607890723289","2013"
"34","24078",Vimy,"24","1","45.561100853955864","-73.73176055147106","2013"
"35","35022",Dufferin--Caledon,"35","0","43.982825419926506","-80.10742499793406","2013"
"36","35023",Durham,"35","0","44.05748193235183","-78.85917087415079","2013"
"37","35025",Elgin--Middlesex--London,"35","0","42.78420911193336","-81.2017148417075","2013"
"38","35026",Essex,"35","0","42.145494102032515","-82.84906090021306","2013"
"39","35027",Etobicoke Centre,"35","1","43.664414140736106","-79.55253767851714","2013"
"40","35028",Etobicoke--Lakeshore,"35","1","43.62173697859879","-79.52083503631954","2013"
"41","35029",Etobicoke North,"35","1","43.719443700867444","-79.58456095846695","2013"
"42","10001",Avalon,"10","0","47.13241829579499","-53.4145831359509","2013"
"43","10002",Bonavista--Burin--Trinity,"10","0","48.13625473962326","-54.23577378060946","2013"
"44","10003",Coast of Bays--Central--Notre Dame,"10","0","48.661062075667274","-55.88069354510612","2013"
"45","10004",Labrador,"10","0","54.275655159328615","-61.99923210217019","2013"
"46","10005",Long Range Mountains,"10","0","49.337152855095084","-57.47943562521516","2013"
"47","10006",St. John's East,"10","0","47.646147104331185","-52.79491602931428","2013"
"48","10007",St. John's South--Mount Pearl,"10","0","47.44087161000867","-52.80461241456784","2013"
"49","11001",Cardigan,"11","0","46.2561175269027","-62.64558167326422","2013"
"50","11002",Charlottetown,"11","0","46.266390585556024","-63.13506828413836","2013"
"51","11003",Egmont,"11","0","46.672500602203456","-64.07892047661834","2013"
"52","11004",Malpeque,"11","0","46.345295774681205","-63.43004103050881","2013"
"53","12001",Cape Breton--Canso,"12","0","45.80488850287984","-61.052278787864964","2013"
"54","12002",Central Nova,"12","0","45.246819586166815","-62.5789618287232","2013"
"55","12003",Cumberland--Colchester,"12","0","45.54234625191126","-63.74782543876605","2013"
"56","12004",Dartmouth--Cole Harbour,"12","1","44.68457544967855","-63.5429195721408","2013"
"57","12005",Halifax,"12","1","44.471430265603274","-63.1031638636881","2013"
"58","12006",Halifax West,"12","1","44.72582815416251","-63.75093364539674","2013"
"59","12007",Kings--Hants,"12","0","45.05202828691332","-64.0303483361271","2013"
"60","12008",Sackville--Preston--Chezzetcook,"12","1","44.77738104512735","-63.51141528141281","2013"
"61","12009",South Shore--St. Margarets,"12","0","44.2335709843316","-64.83097078062444","2013"
"62","12010",Sydney--Victoria,"12","0","46.428935527425686","-60.61470055158915","2013"
"63","12011",West Nova,"12","0","44.43597716670986","-65.48407086063798","2013"
"64","13001",Acadie--Bathurst,"13","0","47.59162114287107","-65.47884352167084","2013"
"65","13002",Beauséjour,"13","0","46.25179322142164","-64.61298223432512","2013"
"66","13003",Fredericton,"13","0","45.96681691035774","-66.34828667037189","2013"
"67","13004",Fundy Royal,"13","0","45.79755760657498","-65.35605990938059","2013"
"68","13005",Madawaska--Restigouche,"13","0","47.64460367507712","-67.39608747888526","2013"
"69","13006",Miramichi--Grand Lake,"13","0","46.826260330683404","-65.90756769731586","2013"
"70","13007",Moncton--Riverview--Dieppe,"13","1","46.11119467025585","-64.80901954615545","2013"
"71","13008",New Brunswick Southwest,"13","0","45.53587791151952","-66.65744088320217","2013"
"72","13009",Saint John--Rothesay,"13","1","45.27914206930423","-66.03798038443787","2013"
"73","13010",Tobique--Mactaquac,"13","0","46.56989839455234","-67.24015888617653","2013"
"74","24001",Abitibi--Baie-James--Nunavik--Eeyou,"24","0","55.76618957898337","-73.10519215345177","2013"
"75","24002",Abitibi--Témiscamingue,"24","0","47.79919183767703","-78.53377545929618","2013"
"76","24003",Ahuntsic-Cartierville,"24","1","45.54097888913202","-73.68033146499909","2013"
"77","24004",Alfred-Pellan,"24","1","45.646550760947406","-73.66304780673522","2013"
"78","24005",Argenteuil--La Petite-Nation,"24","0","45.813264438348895","-74.96650445799095","2013"
"79","24006",Avignon--La Mitis--Matane--Matapédia,"24","0","48.43370746465199","-67.13544675902988","2013"
"80","24007",Beauce,"24","0","46.157617804522474","-70.73399534568033","2013"
"81","24008",Beauport--Limoilou,"24","1","46.85786181277012","-71.21134459432272","2013"
"82","24009",Bécancour--Nicolet--Saurel,"24","0","46.187625546504705","-72.49634633061177","2013"
"83","24010",Bellechasse--Les Etchemins--Lévis,"24","0","46.58291498423494","-70.60006181829296","2013"
"84","24011",Beloeil--Chambly,"24","0","45.4806696659121","-73.20758497647505","2013"
"85","24012",Berthier--Maskinongé,"24","0","46.41449457622639","-73.18970709823039","2013"
"86","24013",Thérèse-De Blainville,"24","1","45.6772125406831","-73.84205947893423","2013"
"87","24014",Pierre-Boucher--Les Patriotes--Verchères,"24","0","45.711422857444425","-73.26561861913979","2013"
"88","24015",Bourassa,"24","1","45.59742759157726","-73.63310688317402","2013"
"89","24016",Brome--Missisquoi,"24","0","45.1804202045693","-72.64823368018932","2013"
"90","24017",Brossard--Saint-Lambert,"24","1","45.45289382894473","-73.45430199106941","2013"
"91","24018",Rimouski-Neigette--Témiscouata--Les Basques,"24","0","47.88856139272626","-68.72676252065196","2013"
"92","24019",Charlesbourg--Haute-Saint-Charles,"24","1","46.90518024225645","-71.33288216482227","2013"
"93","24020",Beauport--Côte-de-Beaupré--Île d?Orléans--Charlevoix,"24","0","47.62785691649057","-70.88290299415314","2013"
"94","24021",Châteauguay--Lacolle,"24","0","45.20791999825114","-73.5850785582868","2013"
"95","24022",Chicoutimi--Le Fjord,"24","0","48.20348239293165","-70.54552644312822","2013"
"96","24023",Compton--Stanstead,"24","0","45.34742578059577","-71.65144043144387","2013"
"97","24024",Dorval--Lachine--LaSalle,"24","1","45.4503844660351","-73.7034892557714","2013"
"98","24025",Drummond,"24","0","45.857647044426784","-72.47074121494435","2013"
"99","24026",Gaspésie--Les Îles-de-la-Madeleine,"24","0","48.6859231950654","-65.33683036179575","2013"
"100","24027",Gatineau,"24","1","45.50953846324043","-75.62284595249143","2013"
"101","24028",Hochelaga,"24","1","45.5660299917871","-73.54721089917754","2013"
"102","24029",Honoré-Mercier,"24","1","45.6363920865817","-73.56413259635536","2013"
"103","24030",Hull--Aylmer,"24","1","45.42372205697341","-75.78533170449293","2013"
"104","24031",Joliette,"24","0","46.656620587737294","-73.990350475139","2013"
"105","24032",Jonquière,"24","0","50.21710244635414","-70.69109629471538","2013"
"106","24033",La Pointe-de-l'Île,"24","1","45.63684567194697","-73.5171833002128","2013"
"107","24034",La Prairie,"24","1","45.36140841526904","-73.53982348836492","2013"
"108","24035",Lac-Saint-Jean,"24","0","49.539993601798976","-72.55668905516276","2013"
"109","24036",Lac-Saint-Louis,"24","1","45.443583554233214","-73.88125712547544","2013"
"110","24052",Mount Royal,"24","1","45.4902903518075","-73.65485839155164","2013"
"111","24053",Notre-Dame-de-Grâce--Westmount,"24","1","45.4734312745567","-73.62105568237853","2013"
"112","35047",Kitchener South--Hespeler,"35","1","43.41621946250674","-80.401225844447","2013"
"113","35052",London North Centre,"35","1","43.014468677061096","-81.25921580201687","2013"
"114","35066",Niagara Centre,"35","1","42.99213345829707","-79.21436336186864","2013"
"115","35067",Niagara Falls,"35","1","43.046983019577226","-79.08531802137803","2013"
"116","35068",Niagara West,"35","0","43.05789995191808","-79.47064081543297","2013"
"117","35069",Nickel Belt,"35","0","47.03114972913461","-81.27220365759074","2013"
"118","35070",Nipissing--Timiskaming,"35","0","46.47794740547981","-79.33654638402336","2013"
"119","35055",Markham--Thornhill,"35","1","43.834654553542705","-79.32103147052597","2013"
"120","35056",Markham--Unionville,"35","1","43.89505075351633","-79.32687066005045","2013"
"121","35071",Northumberland--Peterborough South,"35","0","44.14392503050133","-78.10063073433717","2013"
"122","35072",Oakville,"35","1","43.44709937858325","-79.69926004115271","2013"
"123","35075",Ottawa Centre,"35","1","45.395117171939084","-75.71901236571811","2013"
"124","35076",Orléans,"35","1","45.40969005465456","-75.5087524270162","2013"
"125","35077",Ottawa South,"35","1","45.36685587044555","-75.64884773476628","2013"
"126","35079",Ottawa West--Nepean,"35","1","45.36141556999998","-75.82748084236067","2013"
"127","35080",Oxford,"35","0","43.106486406755835","-80.74505578330928","2013"
"128","35005",Barrie--Springwater--Oro-Medonte,"35","0","44.5070230778356","-79.74196766599994","2013"
"129","35006",Bay of Quinte,"35","0","44.07197630234275","-77.3488752439285","2013"
"130","35007",Beaches--East York,"35","1","43.6895022179934","-79.30668793795485","2013"
"131","35008",Brampton Centre,"35","1","43.700634305097495","-79.72041516342826","2013"
"132","35009",Brampton East,"35","1","43.77448605940187","-79.70014958953927","2013"
"133","35010",Brampton North,"35","1","43.73897857930565","-79.77630290993413","2013"
"134","35011",Brampton South,"35","1","43.65011984353526","-79.76764725724087","2013"
"135","35012",Brampton West,"35","1","43.67942926262942","-79.8266959936056","2013"
"136","35013",Brantford--Brant,"35","0","43.114302750433325","-80.23601182677129","2013"
"137","35014",Bruce--Grey--Owen Sound,"35","0","44.49666257617679","-80.91721903606","2013"
"138","35015",Burlington,"35","1","43.33946548272705","-79.82051025656232","2013"
"139","35016",Cambridge,"35","1","43.322394168815734","-80.34923393685604","2013"
"140","35017",Chatham-Kent--Leamington,"35","0","42.299953666092065","-82.19681658040126","2013"
"141","35019",Don Valley East,"35","1","43.73971797116555","-79.33297115826136","2013"
"142","35021",Don Valley West,"35","1","43.72840318183174","-79.37536194071942","2013"
"143","35018",Davenport,"35","1","43.66937867806214","-79.44404487717249","2013"
"144","35020",Don Valley North,"35","1","43.78761060999313","-79.36001664329278","2013"
"145","35024",Eglinton--Lawrence,"35","1","43.718311222360875","-79.43383212419903","2013"
"146","35030",Flamborough--Glanbrook,"35","1","43.25733275258227","-79.98396857750714","2013"
"147","35031",Glengarry--Prescott--Russell,"35","0","45.430260365989064","-74.93206413683528","2013"
"148","35032",Guelph,"35","1","43.532777618194174","-80.23693502986183","2013"
"149","35033",Haldimand--Norfolk,"35","0","42.858462919538255","-80.17922064212469","2013"
"150","35034",Haliburton--Kawartha Lakes--Brock,"35","0","44.82775736567028","-78.65939247286032","2013"
"151","35035",Hamilton Centre,"35","1","43.26850171828726","-79.84611304875168","2013"
"152","35036",Hamilton East--Stoney Creek,"35","1","43.230816739338024","-79.7406013933443","2013"
"153","35037",Hamilton Mountain,"35","1","43.21653863876043","-79.85706859891899","2013"
"154","35038",Hamilton West--Ancaster--Dundas,"35","1","43.23544527134832","-79.96821322347138","2013"
"155","24065",Marc-Aurèle-Fortin,"24","1","45.60055267047671","-73.77466637664102","2013"
"156","24066",Saint-Hyacinthe--Bagot,"24","0","45.65621702603969","-72.79343713166858","2013"
"157","24067",Saint-Jean,"24","0","45.256780075282755","-73.23906495683015","2013"
"158","24068",Saint-Laurent,"24","1","45.49833681787506","-73.71263227469612","2013"
"159","35002",Algoma--Manitoulin--Kapuskasing,"35","0","48.287910491101535","-83.4487834610829","2013"
"160","35003",Aurora--Oak Ridges--Richmond Hill,"35","1","43.94678975236718","-79.4350158759186","2013"
"161","24063",Rivière-du-Nord,"24","0","45.8569413772319","-73.99031572600097","2013"
"162","24064",Rosemont--La Petite-Patrie,"24","1","45.5457555056823","-73.58685452546311","2013"
"163","35001",Ajax,"35","1","43.86907018955557","-79.02756554716858","2013"
"164","35004",Barrie--Innisfil,"35","1","44.292885246454794","-79.61683641246458","2013"
"165","35039",Hastings--Lennox and Addington,"35","0","44.733512603661495","-77.43056176316269","2013"
"166","35040",Huron--Bruce,"35","0","43.861000454953604","-81.40601159899674","2013"
"167","35041",Kanata--Carleton,"35","1","45.37104950850171","-76.09707124570372","2013"
"168","35042",Kenora,"35","0","52.74386654744623","-90.77148833330953","2013"
"169","35043",King--Vaughan,"35","1","43.93100750447179","-79.60388615433139","2013"
"170","35044",Kingston and the Islands,"35","1","44.23451789192619","-76.42143944297143","2013"
"171","35045",Kitchener Centre,"35","1","43.44868229721082","-80.47068533446024","2013"
"172","35046",Kitchener--Conestoga,"35","0","43.50166336178942","-80.61226328976059","2013"
"173","35048",Lambton--Kent--Middlesex,"35","0","42.869206202716924","-81.8239985422256","2013"
"174","35049",Lanark--Frontenac--Kingston,"35","0","44.86456625942707","-76.55631583539689","2013"
"175","35050",Leeds--Grenville--Thousand Islands and Rideau Lakes,"35","0","44.69474179112493","-75.92076017393273","2013"
"176","35051",London--Fanshawe,"35","1","42.99259957827123","-81.18079270935517","2013"
"177","35053",London West,"35","1","42.97381442303423","-81.31974161464832","2013"
"178","35054",Markham--Stouffville,"35","1","43.98235381549094","-79.2987511244524","2013"
"179","35057",Milton,"35","1","43.49951445266584","-79.93386519747385","2013"
"180","35059",Mississauga East--Cooksville,"35","1","43.60670208031688","-79.60621361003639","2013"
"181","35061",Mississauga--Lakeshore,"35","1","43.54405158564976","-79.61186162728198","2013"
"182","35062",Mississauga--Malton,"35","1","43.65768729426726","-79.65772219785221","2013"
"183","35063",Mississauga--Streetsville,"35","1","43.59203731867074","-79.7476075422857","2013"
"184","35087",Richmond Hill,"35","1","43.86144961346624","-79.42010907801523","2013"
"185","35090",Toronto--St. Paul's,"35","1","43.690550672879304","-79.41397568114265","2013"
"186","35093",Scarborough--Agincourt,"35","1","43.79648879577381","-79.30811509895905","2013"
"187","35094",Scarborough Centre,"35","1","43.752768087040806","-79.276582623714","2013"
"188","35058",Mississauga Centre,"35","1","43.580982504366006","-79.65929322641935","2013"
"189","35060",Mississauga--Erin Mills,"35","1","43.54528826884486","-79.70828946209261","2013"
"190","35082",Parry Sound--Muskoka,"35","0","45.50409812714228","-79.70182616007475","2013"
"191","35083",Perth--Wellington,"35","0","43.62728764874721","-80.90491046822027","2013"
"192","35084",Peterborough--Kawartha,"35","0","44.61119735776343","-78.19904486129553","2013"
"193","35085",Pickering--Uxbridge,"35","1","44.044324765316226","-79.16195323579375","2013"
"194","35086",Renfrew--Nipissing--Pembroke,"35","0","45.679846429245075","-77.54518119321695","2013"
"195","35088",Carleton,"35","1","45.174488598428646","-75.70685800998031","2013"
"196","35089",St. Catharines,"35","1","43.17785851991198","-79.23632449908462","2013"
"197","35091",Sarnia--Lambton,"35","0","42.86451810896306","-82.2424785317024","2013"
"198","35092",Sault Ste. Marie,"35","0","46.92551010567914","-84.1804657841203","2013"
"199","35095",Scarborough--Guildwood,"35","1","43.765951076840075","-79.21472085438099","2013"
"200","35105",Thunder Bay--Rainy River,"35","0","48.83388229787949","-91.38345270525146","2013"
"201","35096",Scarborough North,"35","1","43.80965161967309","-79.25465808187339","2013"
"202","35097",Scarborough--Rouge Park,"35","1","43.80572624346971","-79.17693455338758","2013"
"203","35098",Scarborough Southwest,"35","1","43.71367909765311","-79.26001510074224","2013"
"204","35099",Simcoe--Grey,"35","0","44.290298170588876","-80.02212247835496","2013"
"205","35100",Simcoe North,"35","0","44.67819306508055","-79.55466116209521","2013"
"206","35101",Spadina--Fort York,"35","1","43.637723314522276","-79.39343356822779","2013"
"207","35102",Stormont--Dundas--South Glengarry,"35","0","45.1018273062606","-75.01101914761706","2013"
"208","35103",Sudbury,"35","1","46.406596846430816","-81.29443531246011","2013"
"209","35104",Thornhill,"35","1","43.81175514772294","-79.47782595950076","2013"
"210","35064",Nepean,"35","1","45.27221797129709","-75.77687648945579","2013"
"211","35065",Newmarket--Aurora,"35","1","44.04014220941018","-79.45880295624282","2013"
"212","48008",Calgary Midnapore,"48","1","50.90883083888959","-114.04201019089791","2013"
"213","48009",Calgary Nose Hill,"48","1","51.137220487417224","-114.10034841359854","2013"
"214","48010",Calgary Rocky Ridge,"48","1","51.15334540959043","-114.18975366414348","2013"
"215","48011",Calgary Shepard,"48","1","50.94445967100789","-113.9403741664565","2013"
"216","48012",Calgary Signal Hill,"48","1","51.05473927687582","-114.20001569805257","2013"
"217","48013",Calgary Skyview,"48","1","51.14409521801512","-113.99385652339653","2013"
"218","35073",Oakville North--Burlington,"35","1","43.44564622093871","-79.7681598409065","2013"
"219","35074",Oshawa,"35","1","43.89694617353962","-78.85559619505035","2013"
"220","48018",Edmonton Riverbend,"48","1","53.455165086464355","-113.56253925736574","2013"
"221","48019",Edmonton Strathcona,"48","1","53.512879742280944","-113.453485503447","2013"
"222","48020",Edmonton West,"48","1","53.50619708805754","-113.65117118078831","2013"
"223","48021",Edmonton--Wetaskiwin,"48","0","53.06035926797521","-113.8497603411895","2013"
"224","48022",Foothills,"48","0","50.13458270113634","-114.16698799353392","2013"
"225","48023",Fort McMurray--Cold Lake,"48","0","57.38632726069952","-112.14307799664397","2013"
"226","48024",Grande Prairie--Mackenzie,"48","0","57.777068815003354","-118.13056487792805","2013"
"227","48025",Lakeland,"48","0","54.011304190941516","-111.77787800505169","2013"
"228","48026",Lethbridge,"48","1","49.843767107510764","-112.76759187395076","2013"
"229","48027",Medicine Hat--Cardston--Warner,"48","0","49.66016338299095","-111.32924712116358","2013"
"230","35078",Ottawa--Vanier,"35","1","45.4442414492354","-75.63818916128248","2013"
"231","35081",Parkdale--High Park,"35","1","43.65011164233897","-79.46721980091598","2013"
"232","35106",Thunder Bay--Superior North,"35","0","49.948643200213","-87.97382955181983","2013"
"233","35107",Timmins--James Bay,"35","0","51.8042826096346","-83.32897296525253","2013"
"234","48028",Peace River--Westlock,"48","0","56.182854315980165","-115.7605731338555","2013"
"235","48029",Red Deer--Mountain View,"48","0","51.89595276106097","-114.02101342713685","2013"
"236","48030",Red Deer--Lacombe,"48","0","52.57277858109989","-113.8147101525956","2013"
"237","48031",St. Albert--Edmonton,"48","1","53.622283388240334","-113.61318985473139","2013"
"238","48032",Sherwood Park--Fort Saskatchewan,"48","1","53.57284681295953","-113.10208858393332","2013"
"239","48033",Sturgeon River--Parkland,"48","0","53.74785037116594","-113.80372987677657","2013"
"240","35108",Toronto Centre,"35","1","43.660126844821974","-79.37005435589649","2013"
"241","35109",Toronto--Danforth,"35","1","43.668622659642054","-79.33989092138486","2013"
"242","35110",University--Rosedale,"35","1","43.67114097897191","-79.39431221677187","2013"
"243","35111",Vaughan--Woodbridge,"35","1","43.79860316138999","-79.60119414546479","2013"
"244","35112",Waterloo,"35","1","43.48040342927133","-80.53519305315989","2013"
"245","35113",Wellington--Halton Hills,"35","0","43.646722127884516","-80.1926570284143","2013"
"246","35114",Whitby,"35","1","43.93308738621299","-78.96524964765466","2013"
"247","35115",Willowdale,"35","1","43.776889059029706","-79.41648107306591","2013"
"248","35116",Windsor--Tecumseh,"35","1","42.26034900992615","-82.92958709314689","2013"
"249","35117",Windsor West,"35","1","42.27729445227589","-83.02795606418148","2013"
"250","35118",York Centre,"35","1","43.752551934753534","-79.4677712350557","2013"
"251","35119",York--Simcoe,"35","1","44.237212646340986","-79.42313945832943","2013"
"252","35120",York South--Weston,"35","1","43.69493941490794","-79.49334009774003","2013"
"253","35121",Humber River--Black Creek,"35","1","43.750749762783855","-79.53019253138953","2013"
"254","46001",Brandon--Souris,"46","0","49.443916430806155","-100.1667068544029","2013"
"255","46002",Charleswood--St. James--Assiniboia--Headingley,"46","1","49.86791287862165","-97.33876388925148","2013"
"256","46009",Saint Boniface--Saint Vital,"46","1","49.851578181590966","-97.07555437383675","2013"
"257","46011",Winnipeg Centre,"46","1","49.899646416198756","-97.1804768040183","2013"
"258","46003",Churchill--Keewatinook Aski,"46","0","55.943311724791386","-97.09110376470902","2013"
"259","46004",Dauphin--Swan River--Neepawa,"46","0","51.27726592770277","-100.29290403982935","2013"
"260","46005",Elmwood--Transcona,"46","1","49.90448428149108","-97.03747534528088","2013"
"261","46006",Kildonan--St. Paul,"46","1","49.99295555799423","-97.0874697924544","2013"
"262","46007",Portage--Lisgar,"46","0","49.547877968270946","-98.0587686261675","2013"
"263","46008",Provencher,"46","0","49.56307777314939","-96.13011972681298","2013"
"264","46010",Selkirk--Interlake--Eastman,"46","0","50.69678430265995","-97.38858528709422","2013"
"265","46013",Winnipeg South,"46","1","49.7799789522406","-97.14495913280372","2013"
"266","46014",Winnipeg South Centre,"46","1","49.8490793042946","-97.17922251495182","2013"
"267","47001",Battlefords--Lloydminster,"47","0","52.74811651603845","-109.03740185039463","2013"
"268","47002",Cypress Hills--Grasslands,"47","0","50.158644474971084","-108.00919287692726","2013"
"269","47003",Desnethé--Missinippi--Churchill River,"47","0","56.71247349951355","-105.93568022779536","2013"
"270","47004",Carlton Trail--Eagle Creek,"47","0","52.28396515507714","-106.96053731333025","2013"
"271","47005",Moose Jaw--Lake Centre--Lanigan,"47","0","51.11275374196555","-105.51602970018244","2013"
"272","47006",Prince Albert,"47","0","53.150390933990955","-104.65335697359984","2013"
"273","47007",Regina--Lewvan,"47","1","50.4586694933174","-104.66529735220068","2013"
"274","47008",Regina--Qu'Appelle,"47","0","51.06482899004995","-103.9391385308091","2013"
"275","47009",Regina--Wascana,"47","1","50.42669315769878","-104.55101246319758","2013"
"276","47010",Saskatoon--Grasswood,"47","1","52.04737428260107","-106.5705698795623","2013"
"277","47011",Saskatoon--University,"47","1","52.15875411575404","-106.58742620917431","2013"
"278","47012",Saskatoon West,"47","1","52.1500011338791","-106.7099454569805","2013"
"279","47013",Souris--Moose Mountain,"47","0","49.68459608245546","-103.26002744039849","2013"
"280","47014",Yorkton--Melville,"47","0","51.948099059780716","-102.76124511730951","2013"
"281","48001",Banff--Airdrie,"48","0","51.44640942498754","-115.50909766150737","2013"
"282","48002",Battle River--Crowfoot,"48","0","52.076094385479344","-111.55368883489346","2013"
"283","48003",Bow River,"48","0","50.65490095454663","-112.61695418354702","2013"
"284","48004",Calgary Centre,"48","1","51.022330651118025","-114.07491910037685","2013"
"285","48005",Calgary Confederation,"48","1","51.07718386966599","-114.10355083549803","2013"
"286","48006",Calgary Forest Lawn,"48","1","51.06062261182322","-113.95248282055947","2013"
"287","46012",Winnipeg North,"46","1","49.9428429282334","-97.18003845882896","2013"
"288","59019",New Westminster--Burnaby,"59","1","49.21555536812082","-122.9241139462937","2013"
"289","48007",Calgary Heritage,"48","1","50.9405453592248","-114.12537832629762","2013"
"290","48014",Edmonton Centre,"48","1","53.548307903598385","-113.54623750723503","2013"
"291","48017",Edmonton Mill Woods,"48","1","53.46112698597626","-113.42019403339177","2013"
"292","48034",Yellowhead,"48","0","53.23533220176513","-116.9380513008741","2013"
"293","59001",Abbotsford,"59","1","49.042905323612","-122.21784546903639","2013"
"294","59002",Burnaby North--Seymour,"59","1","49.33545490507961","-122.95341536729457","2013"
"295","59004",Cariboo--Prince George,"59","0","52.54629388410664","-123.31709141475336","2013"
"296","59005",Central Okanagan--Similkameen--Nicola,"59","0","49.75221060496989","-120.3825960983754","2013"
"297","59006",Chilliwack--Hope,"59","0","49.19619721175645","-121.3917037061121","2013"
"298","59008",Coquitlam--Port Coquitlam,"59","1","49.430963174122304","-122.73229665663548","2013"
"299","59009",Courtenay--Alberni,"59","0","49.248564653641786","-125.2727140970475","2013"
"300","59010",Cowichan--Malahat--Langford,"59","0","48.705768072436825","-124.11723426524055","2013"
"301","59011",Delta,"59","1","49.09828512497223","-123.01823164218972","2013"
"302","59003",Burnaby South,"59","1","49.22891571549718","-122.98153582181185","2013"
"303","59013",Kamloops--Thompson--Cariboo,"59","0","51.55914403865795","-120.43267408106686","2013"
"304","59014",Kelowna--Lake Country,"59","1","49.92838434537997","-119.24897970818172","2013"
"305","48015",Edmonton Griesbach,"48","1","53.58230521847598","-113.46748172097581","2013"
"306","48016",Edmonton Manning,"48","1","53.643389814517825","-113.3742889816032","2013"
"307","59025",Richmond Centre,"59","1","49.180226811588135","-123.170325087017","2013"
"308","59028",Skeena--Bulkley Valley,"59","0","56.49689076187821","-129.182880189238","2013"
"309","59029",South Okanagan--West Kootenay,"59","0","49.55186518298308","-118.36649773314734","2013"
"310","59030",South Surrey--White Rock,"59","1","49.05854016651509","-122.77293184459289","2013"
"311","59031",Steveston--Richmond East,"59","1","49.15463630873114","-123.07938765679705","2013"
"312","59032",Surrey Centre,"59","1","49.191449724554","-122.85483127574544","2013"
"313","59033",Surrey--Newton,"59","1","49.1351820211783","-122.85653734584793","2013"
"314","59012",Fleetwood--Port Kells,"59","1","49.1741327602901","-122.75742184128993","2013"
"315","59015",Kootenay--Columbia,"59","0","50.50196220782188","-116.65836296893838","2013"
"316","59016",Langley--Aldergrove,"59","1","49.08928392306875","-122.5450499892673","2013"
"317","59017",Mission--Matsqui--Fraser Canyon,"59","0","50.27939537979603","-122.02742753031093","2013"
"318","59018",Nanaimo--Ladysmith,"59","0","49.09707567385523","-124.1582901599062","2013"
"319","59020",North Okanagan--Shuswap,"59","0","50.58913090000218","-118.81481427337256","2013"
"320","59021",North Vancouver,"59","1","49.443240367737204","-123.01701987626745","2013"
"321","59022",Pitt Meadows--Maple Ridge,"59","0","49.56104768817725","-122.54398274474727","2013"
"322","59023",Port Moody--Coquitlam,"59","1","49.29418081380465","-122.8549552130951","2013"
"323","59024",Prince George--Peace River--Northern Rockies,"59","0","57.05830634987364","-122.87911461788353","2013"
"324","59026",Esquimalt--Saanich--Sooke,"59","1","48.41711177695385","-123.60534374710836","2013"
"325","59027",Saanich--Gulf Islands,"59","0","48.759236927776946","-123.40659357801934","2013"
"326","59034",Vancouver Centre,"59","1","49.28727700484411","-123.13264914369577","2013"
"327","59035",Vancouver East,"59","1","49.27367616219072","-123.0633114483725","2013"
"328","59007",Cloverdale--Langley City,"59","1","49.123117884519154","-122.71753900229355","2013"
"329","59036",Vancouver Granville,"59","1","49.23801055220199","-123.12998397844098","2013"
"330","59037",North Island--Powell River,"59","0","50.7700619116369","-126.04703843991905","2013"
"331","59038",Vancouver Kingsway,"59","1","49.24495720827919","-123.06166464904746","2013"
"332","59039",Vancouver Quadra,"59","1","49.24917648392681","-123.19823874403625","2013"
"333","59040",Vancouver South,"59","1","49.218708325178014","-123.06944971210052","2013"
"334","59041",Victoria,"59","1","48.436269212061546","-123.32801971642449","2013"
"335","59042",West Vancouver--Sunshine Coast--Sea to Sky Country,"59","0","50.119044971091206","-123.3257161464629","2013"
"336","60001",Yukon,"60","0","63.63124998960354","-135.51110051978287","2013"
"337","61001",Northwest Territories,"61","0","66.38026944267341","-118.99915287907677","2013"
"338","62001",Nunavut,"62","0","71.02024982390058","-88.87356669263063","2013"
